City,Cloudiness,Country,Date,Humidity,Lat,Lng,Max Temp,Wind Speed
Saint-Philippe,90,CA,1562977743,60,45.36,-73.48,75.2,11.41
Jaru,33,BR,1562978134,67,-10.43,-62.48,76.19,1.88
Lasa,40,CY,1562977807,83,34.92,32.53,75.2,4.7
Barrow,0,AR,1562977474,81,-38.31,-60.23,43.43,5.66
Te Anau,95,NZ,1562977750,81,-45.41,167.72,47.75,6.98
Launceston,40,AU,1562978135,75,-41.43,147.14,46.99,8.05
Kassala,100,SD,1562978135,55,15.45,36.38,83.21,14.76
Clyde River,75,CA,1562977770,87,70.47,-68.59,42.8,12.75
Avarua,75,CK,1562977734,73,-21.21,-159.78,73.4,13.87
Mbanza-Ngungu,21,CD,1562978136,91,-5.25,14.87,65.21,2.17
Port Lincoln,34,AU,1562977758,63,-34.72,135.86,54.23,23.04
Pangkalanbuun,43,ID,1562978136,94,-2.68,111.62,74.39,1.9
Jamestown,2,AU,1562977727,75,-33.21,138.6,46.85,12.24
Torbay,20,CA,1562977749,87,47.66,-52.73,51.01,3.36
Carnarvon,0,ZA,1562977508,26,-30.97,22.13,54.23,10.07
Mataura,100,NZ,1562977727,70,-46.19,168.86,57,1.01
Cherskiy,48,RU,1562977744,55,68.75,161.3,67.55,9.26
Havre-Saint-Pierre,90,CA,1562977562,93,50.23,-63.6,57.2,4.7
Vaini,90,IN,1562977717,100,15.34,74.49,71.6,5.82
Albany,20,US,1562977499,64,42.65,-73.75,75.99,9.17
Atuona,30,PF,1562977760,71,-9.8,-139.03,80.87,15.43
Wageningen,90,NL,1562978137,93,51.98,5.66,62.01,5.82
Saravan,40,AM,1562978137,49,39.72,45.65,71.6,2.24
Kapaa,75,US,1562977722,66,22.08,-159.32,86,12.75
Georgetown,40,GY,1562977718,78,6.8,-58.16,82.4,9.17
Igarka,79,RU,1562978138,62,67.47,86.57,66.11,12.91
Ponta do Sol,0,BR,1562977745,55,-20.63,-46,59.99,1.99
Chuy,79,UY,1562977814,95,-33.69,-53.46,56.03,9.28
Plouzane,0,FR,1562978138,93,48.38,-4.62,62.01,4.7
Kahului,20,US,1562977740,46,20.89,-156.47,89.6,18.34
Westport,1,US,1562978139,51,41.14,-73.36,82.4,10.29
New Norfolk,75,AU,1562977515,75,-42.78,147.06,43,19.46
Namibe,69,AO,1562977857,84,-15.19,12.15,65.21,4.92
Bredasdorp,9,ZA,1562977729,72,-34.53,20.04,59,4.7
Hobart,75,AU,1562977630,81,-42.88,147.33,43,14.99
Muros,0,ES,1562977802,68,42.77,-9.06,78.01,1.12
Nakasongola,100,UG,1562978139,95,1.32,32.46,63.95,6.98
Marawi,100,PH,1562977721,87,8,124.29,77,1.01
Raja Sansi,90,IN,1562978140,94,31.72,74.8,78.8,43.62
Puerto Ayora,20,EC,1562977735,61,-0.74,-90.35,77,13.87
Lebu,90,ET,1562977725,100,8.96,38.73,55.4,4.7
Ahipara,17,NZ,1562977739,100,-35.17,173.16,63,16.58
Rikitea,16,PF,1562977734,80,-23.12,-134.97,74.03,16.42
Ushuaia,75,AR,1562977718,80,-54.81,-68.31,39.2,3.36
Mattawa,75,CA,1562978140,73,46.32,-78.7,71.01,13.87
Chokurdakh,90,RU,1562977763,76,70.62,147.9,60.89,20
Cayenne,20,GF,1562978141,83,4.94,-52.33,78.8,4.65
Mar del Plata,55,AR,1562977542,63,-46.43,-67.52,42.17,10.11
Mahebourg,40,MU,1562977777,64,-20.41,57.7,69.8,5.82
Rio Grande,82,BR,1562977584,96,-32.03,-52.1,60.71,5.12
Senanga,0,ZM,1562978141,34,-16.1,23.3,50.45,5.93
Goundam,48,ML,1562978142,44,16.42,-3.66,89.69,22.59
Port-Gentil,75,GA,1562977743,94,-0.72,8.78,75.2,9.17
Husavik,93,CA,1562977756,45,50.56,-96.99,75,3.53
Rocha,87,UY,1562978142,96,-34.48,-54.34,53.69,8.59
Hofn,100,IS,1562977719,98,64.25,-15.21,42.89,1.28
Abonnema,98,NG,1562978142,91,4.71,6.79,74.93,3.98
Kaitangata,88,NZ,1562977533,64,-46.28,169.85,48,1.99
Turinskaya Sloboda,75,RU,1562978143,93,57.62,64.39,63.95,6.38
Zhezkazgan,0,KZ,1562977823,39,47.8,67.71,74.03,11.27
Punta Arenas,90,CL,1562977719,93,-53.16,-70.91,41,14.99
Tasiilaq,3,GL,1562977744,81,65.61,-37.64,42.8,5.82
Batagay,69,RU,1562978143,39,67.65,134.64,79.97,4.54
Severo-Kurilsk,89,RU,1562977508,93,50.68,156.12,44.51,12.12
Castro,90,CL,1562977719,93,-42.48,-73.76,46.4,19.46
Evanston,1,US,1562977726,33,42.04,-87.69,88,8.05
Crotone,0,IT,1562978144,67,39.09,17.12,70.97,3.4
Fort Nelson,90,CA,1562978144,72,58.81,-122.69,59,9.17
Bluff,47,AU,1562977721,39,-23.58,149.07,66.83,5.19
Hudson Bay,28,CA,1562978144,46,52.86,-102.4,72.59,9.42
Kabinda,59,CD,1562978145,82,-6.14,24.49,66.65,3.76
Nantucket,90,US,1562977771,94,41.28,-70.1,75,4.7
Ilulissat,90,GL,1562977513,87,69.22,-51.1,42.8,4.7
Yerbogachen,8,RU,1562977739,63,61.28,108.01,64.49,10.02
Butaritari,14,KI,1562977721,74,3.07,172.79,84.65,9.84
Magadan,15,RU,1562978145,74,59.56,150.8,56.57,1.5
Vondrozo,6,MG,1562978146,96,-22.82,47.32,52.43,1.59
Ulaangom,100,MN,1562978146,82,49.98,92.07,56.39,8.99
Busselton,95,AU,1562977461,85,-33.64,115.35,48.99,14
Hilo,75,US,1562977720,54,19.71,-155.08,84.2,11.41
Margate,75,AU,1562977818,81,-43.03,147.26,43,14.99
Pevek,73,RU,1562977487,91,69.7,170.27,39.83,8.37
Gewane,100,ET,1562978146,46,10.16,40.66,84.83,3.06
Tuktoyaktuk,40,CA,1562977724,75,69.44,-133.03,46.4,5.82
Oksfjord,97,NO,1562977845,66,70.24,22.35,51.8,10.29
Victoria,75,BN,1562977536,88,5.28,115.24,80.6,2.24
Hay River,75,CA,1562978147,55,60.82,-115.79,60.8,8.05
Cidreira,98,BR,1562977720,82,-30.17,-50.22,65.39,3.62
Saint George,75,GR,1562977788,93,39.45,22.34,68,2.51
Ribeira Grande,4,PT,1562977740,86,38.52,-28.7,71.87,10.67
Longyearbyen,75,NO,1562977811,87,78.22,15.63,42.8,9.17
Nortelandia,0,BR,1562978148,38,-14.45,-56.8,72.05,2.08
Midland,1,US,1562978148,31,32,-102.08,93.2,9.17
Festus,1,US,1562978148,51,38.22,-90.4,87.8,5.82
Qaanaaq,98,GL,1562977507,62,77.48,-69.36,44.15,2.33
Sinnamary,0,GF,1562977493,76,5.38,-52.96,80.87,14.5
Eureka,1,US,1562978149,72,40.8,-124.16,69.01,19.46
Auki,92,NG,1562978149,73,12.18,6.51,76.01,10.04
Beringovskiy,34,RU,1562977722,44,63.05,179.32,72.41,1.61
Palencia,65,ES,1562978149,51,42.01,-4.53,77,1.99
Hithadhoo,7,MV,1562977648,76,-0.6,73.08,83.93,12.35
Airai,54,TL,1562977750,56,-8.93,125.41,75.65,1.01
Malartic,75,CA,1562978150,43,48.14,-78.13,71.6,2.24
Leningradskiy,36,RU,1562977795,77,69.38,178.42,47.57,8.23
Sao Felix do Xingu,10,BR,1562977926,65,-6.64,-51.99,74.39,3.24
Kattivakkam,75,IN,1562978150,83,13.22,80.32,80.6,8.05
Saldanha,83,PT,1562977758,41,41.42,-6.55,77.27,4.41
Adrar,0,DZ,1562977756,5,27.87,-0.29,95,13.87
Narsaq,75,GL,1562977727,71,60.91,-46.05,51.8,9.17
Gryazi,0,RU,1562978151,87,52.5,39.96,51.8,4.47
Hervey Bay,63,AU,1562977509,42,-25.3,152.85,66.2,6.93
Alice Springs,11,AU,1562977837,54,-23.7,133.88,55.4,16.11
Ostrovnoy,32,RU,1562977749,84,68.05,39.51,38.21,3.02
Vardo,1,US,1562977808,54,39.62,-77.74,84.2,9.17
Bonfim,14,GY,1562978151,74,3.36,-59.84,79.61,5.17
Tolu,20,US,1562978151,58,35.81,-94.5,87.01,3.36
Saskylakh,56,RU,1562977733,52,71.97,114.09,56.93,9.86
Basoko,65,CD,1562978152,98,1.23,23.61,68.27,1.34
Bambous Virieux,40,MU,1562977538,64,-20.34,57.76,69.8,5.82
Jining,0,CN,1562977852,61,35.41,116.58,78.35,4.52
Poum,20,MK,1562977859,87,41.28,20.71,51.8,4.7
Giyon,100,ET,1562978152,96,8.53,37.98,56.93,1.9
Cape Town,0,ZA,1562977736,93,-33.93,18.42,53.01,1.12
Seoul,75,KR,1562977587,69,37.57,126.98,77,4.7
Kieta,31,PG,1562977824,74,-6.22,155.63,83.75,13.06
Omsukchan,64,RU,1562977730,27,62.53,155.8,77.63,5.86
Dingle,100,PH,1562977532,76,11,122.67,79.61,0.69
Salalah,90,OM,1562977784,100,17.01,54.1,78.8,6.93
Banda Aceh,93,ID,1562978153,71,5.56,95.32,83.75,11.18
Dikson,2,RU,1562977525,92,73.51,80.55,32.99,15.23
Timbuktu,0,ML,1562978153,38,16.77,-3.01,92.39,21.07
Buriti,0,BR,1562978154,87,-22.93,-45.39,59,2.35
Yar-Sale,7,RU,1562977773,80,66.83,70.83,52.61,7.81
Hermanus,0,ZA,1562977494,93,-34.42,19.24,53.01,1.01
Khatanga,95,RU,1562977723,68,71.98,102.47,52.61,6.06
Port Alfred,79,ZA,1562977465,92,-33.59,26.89,60.01,4
Sao Joao da Barra,0,BR,1562977742,88,-21.64,-41.05,66.2,2.24
Coahuayana,45,MX,1562977768,78,18.62,-100.35,83.39,1.28
Bathsheba,40,BB,1562977450,78,13.22,-59.52,80.6,10.29
Boueni,0,YT,1562978155,83,-12.9,45.08,77,12.75
Lompoc,20,US,1562977543,77,34.64,-120.46,84,14.99
Sola,80,TZ,1562978155,78,-3.17,33.8,65.93,1.34
Fare,1,PF,1562977756,73,-16.7,-151.02,77.09,2.37
Lorengau,93,PG,1562978156,67,-2.02,147.27,82.49,13.53
Pimentel,49,BR,1562978156,97,-3.7,-45.5,72.05,2.62
Ishinomaki,75,JP,1562978156,83,38.42,141.3,71.6,6.93
Aitape,100,PG,1562978156,71,-3.15,142.36,82.13,2.21
Waingapu,0,ID,1562977862,70,-9.65,120.26,71.87,11.45
Muisne,20,EC,1562977801,83,0.61,-80.02,78.8,10.29
Dongli,20,CN,1562978157,74,24.18,117.61,86,11.18
Yukuhashi,75,JP,1562978157,78,33.72,130.98,75,2.24
Mbaiki,98,CF,1562978158,96,3.87,17.99,68.99,0.43
Blacksburg,40,US,1562978158,61,37.23,-80.41,82.99,3.76
Bandarbeyla,16,SO,1562977842,62,9.49,50.81,77.63,24.49
Nuevo Laredo,20,US,1562978158,31,27.49,-99.5,100.4,10.29
Bulgan,76,MN,1562978158,78,48.81,103.53,62.87,2.17
Laguna,40,BZ,1562977744,70,16.17,-88.94,87.8,6.93
East London,39,ZA,1562977748,89,-33.02,27.91,55.49,12.33
Half Moon Bay,90,US,1562978159,93,37.46,-122.43,79,13.87
Narasannapeta,100,IN,1562978159,82,18.42,84.04,80.87,4.43
Tongzi,100,CN,1562978159,95,28.78,105.09,69.71,3.56
Sorland,61,NO,1562977836,84,67.67,12.69,50.27,24.32
Yanam,100,IN,1562978160,85,16.73,82.22,80.33,4.61
Buala,71,SB,1562977846,73,-8.15,159.59,83.39,10.89
Vila,0,IT,1562978160,68,45.18,8.4,73.99,8.05
Vaitape,33,PF,1562978160,70,-16.52,-151.75,77.27,1.72
Hobyo,26,SO,1562978161,72,5.35,48.53,77.63,23.29
Mahibadhoo,88,MV,1562978161,75,3.78,72.97,83.75,9.95
Arys,0,KZ,1562978161,49,42.43,68.8,73.4,4.47
Salina Cruz,46,MX,1562978162,80,16.18,-95.2,79.79,6.33
Cibitoke,78,BI,1562978162,68,-2.89,29.12,60.71,3.51
Muzhi,0,RU,1562978162,67,65.4,64.7,53.15,3.71
Norman Wells,20,CA,1562977753,42,65.28,-126.83,64.4,6.93
Bilma,0,NE,1562977849,25,18.69,12.92,92.03,7.25
Port Elizabeth,1,US,1562977540,74,39.31,-74.98,86,3.36
Troitskoye,0,RU,1562977978,76,52.98,84.68,60.89,9.08
Ancud,90,CL,1562978163,93,-41.87,-73.83,46.4,19.46
Yatou,80,CM,1562977843,83,3.63,9.81,77.81,8.25
Nanortalik,98,GL,1562977744,85,60.14,-45.24,42.71,3.2
Yellowknife,75,CA,1562977511,44,62.45,-114.38,59,9.17
Nikolskoye,40,RU,1562977779,87,59.7,30.79,53.01,4.47
Sitka,0,US,1562977822,51,37.17,-99.65,89.01,3
Kiama,5,AU,1562978163,40,-34.67,150.86,55.99,24.16
Shubarshi,0,KZ,1562978164,24,48.59,57.19,82.49,11.88
Los Llanos de Aridane,1,ES,1562977697,73,28.66,-17.92,71.6,6.93
Coquimbo,0,CL,1562977817,93,-29.95,-71.34,51.8,12.62
Indiaroba,24,BR,1562978164,96,-11.53,-37.51,68.27,6.06
San Clemente,1,US,1562978164,60,33.43,-117.61,97,6.93
Iqaluit,20,CA,1562977515,58,63.75,-68.52,55.4,4.7
Port Blair,40,IN,1562977777,94,11.67,92.75,77,2.24
Port Hedland,0,AU,1562978165,18,-20.31,118.58,69.8,16.11
Kampot,40,KH,1562978165,70,10.62,104.18,86,11.41
Faanui,33,PF,1562977784,70,-16.48,-151.75,77.27,1.72
Luderitz,0,NA,1562977768,87,-26.65,15.16,51.8,5.82
Berdigestyakh,22,RU,1562978166,49,62.1,126.7,82.49,3.02
Upington,0,ZA,1562978166,32,-28.46,21.24,51.8,2.24
Guerrero Negro,0,MX,1562977604,85,27.97,-114.04,67.01,21.47
Nalut,0,LY,1562978166,64,31.86,10.98,74.75,9.57
San Rafael,3,AR,1562978120,59,-34.61,-68.33,47.03,6.15
Flin Flon,20,CA,1562978166,41,54.77,-101.88,75.2,12.75
Erzurum,75,TR,1562978167,87,39.91,41.27,54,2.24
Tessalit,12,ML,1562978167,7,20.2,1.01,93.65,10.25
Cassilandia,0,BR,1562978167,48,-19.11,-51.73,67.37,3
Tiznit,0,MA,1562977822,91,29.7,-9.73,67.01,5.37
Kodiak,1,US,1562977507,20,39.95,-94.76,87.01,8.05
Cabo San Lucas,5,MX,1562977672,69,22.89,-109.91,91,6.93
Lucapa,58,AO,1562978168,34,-8.42,20.74,65.75,3.13
Puri,11,ID,1562978168,74,-7.54,112.45,72.77,14.34
Galesong,20,ID,1562978169,78,-5.32,119.37,78.8,5.82
Fomboni,3,KM,1562978169,81,-12.28,43.74,77.27,16.31
Pisco,90,PE,1562977735,82,-13.71,-76.2,63,4.7
Vagur,100,FO,1562977925,95,61.47,-6.81,50.63,10.42
Nagato,75,JP,1562978169,88,34.35,131.14,75,5.82
Sirmaur,100,IN,1562978170,71,24.84,81.37,81.95,11.1
Angoram,98,PG,1562978170,79,-4.06,144.07,80.51,3.36
Fontem,79,CM,1562978170,93,5.49,9.85,70.07,1.14
Shimoda,75,JP,1562977848,88,34.7,138.93,77,9.17
San Patricio,90,PY,1562977790,76,-26.98,-56.83,67.01,1.86
Dano,60,BF,1562978170,91,11.14,-3.06,73.49,4.79
Palmer,20,AU,1562978171,58,-34.85,139.16,55.99,20.8
Vanimo,99,PG,1562977547,76,-2.67,141.3,80.69,6.02
Palmas de Monte Alto,0,BR,1562978171,41,-14.26,-43.16,67.37,1.77
La Ronge,75,CA,1562977801,77,55.1,-105.3,62.6,8.05
Flinders,33,AU,1562978171,40,-34.58,150.85,55.99,24.16
Rakoshyno,85,UA,1562978171,84,48.47,22.6,55,5.73
Arevshat,25,AM,1562978172,59,40.04,44.54,66.2,2.24
Winnemucca,1,US,1562978172,10,40.97,-117.74,98.6,12.75
Ust-Maya,82,RU,1562977827,53,60.42,134.54,81.77,0.96
Dongsheng,99,CN,1562978172,93,29.72,112.52,73.49,3.67
Shitanjing,72,CN,1562978173,28,39.23,106.34,79.43,2.57
Jaguaruna,18,BR,1562978173,72,-28.62,-49.03,62.87,5.32
Atar,16,MR,1562978173,20,20.52,-13.05,94.37,11.21
Luwuk,100,ID,1562978047,96,-0.95,122.79,63.59,5.86
Jieshou,13,CN,1562978173,76,33.26,115.35,77.09,4.59
Bubaque,98,GW,1562978174,85,11.28,-15.83,79.25,11.9
Aklavik,20,CA,1562977775,50,68.22,-135.01,55.4,5.82
Gresham,1,US,1562978174,34,45.51,-122.44,84.99,5.82
Ust-Ishim,80,RU,1562978174,96,57.69,71.17,65.21,4.07
Yang Talat,20,TH,1562978174,66,16.39,103.35,84.2,9.17
Xam Nua,100,LA,1562978175,81,20.42,104.04,71.51,3.27
Itaituba,89,BR,1562978175,69,-4.26,-55.99,78.17,1.5
Grand Baie,40,MU,1562978175,64,-20.02,57.58,69.8,5.82
Waddan,0,LY,1562978175,50,29.16,16.14,82.31,12.03
Palana,43,RU,1562978175,82,59.08,159.95,53.87,5.7
Kuusamo,90,FI,1562977842,93,65.96,29.19,42.8,4.7
Payakumbuh,50,ID,1562978176,92,-0.23,100.63,65.93,3.38
Niquelandia,49,BR,1562978176,40,-14.47,-48.46,73.13,4.27
Pringsewu,92,ID,1562977795,94,-5.36,104.98,72.23,3.4
Morros,40,BR,1562978176,94,-2.87,-44.04,77,3.36
Batemans Bay,0,AU,1562978176,89,-35.71,150.18,55.99,8.99
Deputatskiy,68,RU,1562978177,67,69.3,139.9,65.21,9.35
Payyannur,40,IN,1562978177,100,12.1,75.2,75.2,3.36
Haines Junction,86,CA,1562977724,46,60.75,-137.51,65.21,9.73
Paez,40,CO,1562978177,65,2.93,-76.46,77,10.29
Tiassale,83,CI,1562978178,97,5.9,-4.83,71.33,4.25
Artyom,40,RU,1562978178,77,43.36,132.19,69.8,8.95
Den Helder,75,NL,1562978178,93,52.96,4.76,63,4.7
Gravdal,0,NO,1562978178,87,59.79,5.78,57,10.29
Ucluelet,75,CA,1562978178,72,48.94,-125.55,75,6.93
Belfast,99,GB,1562977937,93,54.6,-5.93,57.99,6.93
Birao,90,CF,1562977779,90,10.3,22.78,70.97,4.59
Imbituba,0,BR,1562978179,77,-28.24,-48.67,66.2,11.41
Klaksvik,100,FO,1562977847,100,62.23,-6.59,50,4.7
Van,20,TR,1562978074,28,38.51,43.37,70,10.29
San-Pedro,93,CI,1562977762,94,4.75,-6.64,71.69,3.6
Broken Hill,25,AU,1562978179,61,-31.97,141.45,48.2,16.11
Kavieng,98,PG,1562977469,75,-2.57,150.8,82.13,9.24
Lusambo,69,CD,1562978180,95,-4.97,23.44,66.11,1.99
Ingham,99,AU,1562978180,71,-18.65,146.16,68.63,2.37
Manokwari,84,ID,1562977556,50,-0.87,134.08,78.53,3.8
Tazovskiy,26,RU,1562977838,88,67.47,78.7,45.59,14.79
Kloulklubed,75,PW,1562977818,83,7.04,134.26,80.6,13.87
Atikokan,0,CA,1562978180,47,48.76,-91.62,72.95,10.33
Hasaki,75,JP,1562977744,83,35.73,140.83,75.2,2.24
Thompson,40,CA,1562977736,41,55.74,-97.86,75.2,11.41
Isangel,75,VU,1562977813,65,-19.55,169.27,82.4,9.17
Zyryanka,50,RU,1562977821,46,65.73,150.89,79.43,7.07
Shkoder,0,AL,1562978181,68,42.07,19.51,68,4.7
Yulara,0,AU,1562977739,62,-25.24,130.99,53.6,12.75
Kalabo,7,ZM,1562978181,30,-15,22.67,50.63,5.03
Ugoofaaru,100,MV,1562977778,72,5.67,73,83.75,7.14
Harlow,75,GB,1562977888,93,51.77,0.1,64.99,8.05
Kilindoni,28,TZ,1562978182,77,-7.91,39.67,77.99,17.63
Umm Lajj,13,SA,1562977864,67,25.02,37.27,85.73,7.9
Vestmannaeyjar,98,IS,1562977865,93,63.44,-20.27,52.97,7.99
Comodoro Rivadavia,0,AR,1562978182,75,-45.87,-67.48,42.8,2.24
Mount Gambier,5,AU,1562977769,81,-37.83,140.78,48.2,14.99
Grand Gaube,40,MU,1562978183,64,-20.01,57.66,69.8,5.82
College,90,US,1562977786,88,64.86,-147.8,64.99,4.7
Gold Coast,100,AU,1562978183,64,-28,153.41,70,13.87
High Level,90,CA,1562977841,72,58.52,-117.13,60.8,10.29
Kamenka,0,MD,1562978183,91,48.03,28.7,48.99,2.66
Teknaf,100,BD,1562978184,82,20.86,92.31,84.47,19.75
Earlston,75,GB,1562978184,100,55.64,-2.68,59,5.82
Padang,21,ID,1562977830,79,-0.92,100.36,80.69,7.29
Chapais,90,CA,1562977573,93,49.78,-74.86,60.8,3.36
Pointe Michel,40,DM,1562978184,69,15.25,-61.38,82.4,10.29
San Cristobal,14,HN,1562977754,64,14.68,-86.92,74.57,8.12
Marfino,0,RU,1562978185,93,56.07,37.56,53.6,4.47
Richards Bay,11,ZA,1562977820,82,-28.77,32.06,67.01,8.95
Mantua,20,IT,1562977780,82,45.16,10.79,75.2,4.7
Chulman,0,RU,1562978185,76,56.84,124.9,69.17,1.9
Varhaug,75,NO,1562978185,87,58.61,5.65,55.4,5.82
Briceno,99,CO,1562978186,98,7.11,-75.55,60.35,2.13
Komsomolskiy,0,RU,1562977791,67,67.55,63.78,49.91,4.38
Itaguai,0,BR,1562978177,88,-22.85,-43.78,71.6,3.36
Andijan,0,UZ,1562978186,47,40.76,72.37,80.6,4.47
Moses Lake,1,US,1562978186,25,47.13,-119.28,86,10.29
Sao Jose da Coroa Grande,0,BR,1562978186,94,-8.9,-35.15,68.45,2.13
Utrecht,75,NL,1562978187,87,52.09,5.11,62.01,6.93
Naze,92,NG,1562977576,95,5.43,7.07,72.23,0.72
Gamboma,27,CG,1562978187,70,-1.87,15.88,75.65,3.96
Carbondale,1,US,1562978187,58,38.82,-95.69,87.8,6.93
Yuli,100,CN,1562978187,97,24.82,106.77,71.51,0.67
Redlands,1,US,1562978188,23,34.06,-117.19,102.99,14.99
Ixtapa,75,MX,1562978188,74,20.71,-105.21,81,9.17
Provideniya,100,RU,1562977724,34,64.42,-173.23,75.11,4.72
Poso,99,ID,1562978188,89,-1.4,120.75,65.21,3.89
San Joaquin,94,PH,1562978189,90,10.59,122.14,76.91,2.21
Mehran,0,IR,1562978189,25,33.12,46.17,75.2,6.93
San Carlos de Bariloche,75,AR,1562978189,80,-41.13,-71.31,39.2,3.36
Santa Fe,98,AR,1562977725,93,-31.62,-60.7,59,2.24
Anadyr,0,RU,1562978189,60,64.73,177.51,71.6,2.24
Purpe,98,RU,1562978190,69,64.48,76.69,63,4.83
Houma,71,CN,1562978190,47,35.63,111.36,79.97,0.87
Blue Springs,1,US,1562978190,45,39.02,-94.28,87.01,5.39
Tautira,75,PF,1562978190,78,-17.73,-149.15,80.6,14.99
Berlevag,49,NO,1562977761,87,70.86,29.09,44.15,4.74
Jiujiang,100,CN,1562978191,97,29.73,115.99,70.43,2.44
Dengfeng,0,CN,1562978191,59,34.46,113.03,76.73,4.32
Estelle,0,FR,1562978191,47,43.97,3.47,80.6,6.93
Patea,56,NZ,1562978191,62,-39.76,174.48,60.01,20
Wamba,99,CD,1562978192,99,2.14,27.99,64.31,1.41
Olinda,40,AU,1562977795,65,-37.84,145.39,50,25.28
Port Hardy,90,CA,1562977749,82,50.7,-127.42,62.6,8.05
Cortez,1,US,1562978192,17,37.35,-108.58,89.6,10.29
Ceuta,0,MX,1562978192,70,23.9,-106.93,88,4
Saint-Hyacinthe,90,CA,1562978043,60,45.63,-72.94,75.2,11.41
Bulnes,73,CL,1562978193,87,-36.74,-72.3,53.6,5.82
Zhangjiakou,43,CN,1562977868,48,40.77,114.88,68.63,5.57
Moree,43,AU,1562978193,51,-29.46,149.84,59,21.92
Obidos,20,PT,1562978192,93,39.36,-9.16,68,4.7
Khani,75,GE,1562977866,100,41.96,42.96,66.2,3.36
Kaoma,0,ZM,1562978194,42,-14.8,24.8,47.03,6.22
Kovdor,100,RU,1562978194,90,67.56,30.47,43.07,7.2
Danane,97,CI,1562978194,98,7.26,-8.15,69.17,4.03
Prado,39,CO,1562978194,40,3.75,-74.93,86.99,5.79
Portland,90,US,1562977610,88,43.66,-70.25,75,6.93
Codrington,100,AU,1562977836,48,-28.95,153.24,68,12.75
Labuhan,41,ID,1562977770,86,-2.54,115.51,74.21,0.78
Elat,83,CM,1562978195,99,2.91,11.16,66.11,2.1
Irtyshskiy,79,RU,1562978195,83,58.33,68.13,65.57,3.31
Fuerte,17,PH,1562978195,75,17.54,120.36,83.39,5.88
Kutum,72,SD,1562977858,47,14.2,24.66,77.09,2.13
San Blas,90,MX,1562978195,100,21.54,-105.29,71.6,6.98
Magistralnyy,0,RU,1562978196,68,56.17,107.45,61.07,4.65
Esperance,90,AU,1562977847,100,-33.86,121.89,51.8,1.12
Resistencia,85,AR,1562978196,83,-27.45,-58.99,71.6,2.24
Shebunino,0,RU,1562978196,100,57.66,40.04,44.6,1.19
Ilovita,70,RO,1562978197,71,44.76,22.47,51.35,2.13
Touros,75,BR,1562977727,100,-5.2,-35.46,73.4,6.93
Rio Gallegos,20,AR,1562977812,86,-51.62,-69.22,33.8,5.82
Verkhnevilyuysk,88,RU,1562977833,84,63.45,120.31,67.19,6.6
Baglan,36,GB,1562978197,82,51.62,-3.81,63,5.82
Toamasina,75,MG,1562978198,94,-18.17,49.38,68,2.24
Itarema,10,BR,1562977805,80,-2.92,-39.92,75.65,7.43
Visnes,0,NO,1562978198,87,59.36,5.22,55.4,10.29
Preston,75,GB,1562978198,82,53.76,-2.71,60.8,10.29
Chanthaburi,75,TH,1562978198,88,12.61,102.11,86,9.17
Katangli,99,RU,1562978199,89,51.71,143.23,50.81,11.1
Makakilo City,75,US,1562977728,58,21.35,-158.09,89.01,10.29
Bethel,75,US,1562977633,60,60.79,-161.76,68,8.05
Carutapera,23,BR,1562977782,86,-1.2,-46.02,77.09,6.15
Kungurtug,100,RU,1562978199,93,50.6,97.53,55.13,2.19
Coalville,0,GB,1562978200,87,52.73,-1.37,62.01,8.05
Parung,13,ID,1562978200,90,-7,108.39,64.31,4.85
Sur,0,OM,1562977767,51,22.57,59.53,85.01,13.69
Tiksi,43,RU,1562977524,59,71.64,128.87,50.63,11.61
Saint Anthony,1,US,1562978200,19,43.97,-111.68,91.4,12.75
Chiang Rai,20,TH,1562978021,78,19.9,99.84,82,2.24
Luganville,75,VU,1562978200,78,-15.51,167.18,80.6,13.87
Severo-Yeniseyskiy,78,RU,1562978201,53,60.37,93.04,67.37,1.81
Shadrinsk,69,RU,1562978201,91,56.09,63.63,65.75,10.76
Corner Brook,75,CA,1562977994,63,48.95,-57.95,60.8,9.17
Takoradi,57,GH,1562978201,95,4.89,-1.75,72.05,4.05
Araouane,39,ML,1562977773,14,18.9,-3.53,99.59,12.3
Kruisfontein,22,ZA,1562977499,93,-34,24.73,52.25,7
Mukhen,98,RU,1562978202,92,48.19,136.14,68.63,3.33
Colares,20,PT,1562978202,88,38.8,-9.45,68,4.7
Zeya,57,RU,1562978202,51,53.74,127.27,73.31,3.06
Mgandu,33,TZ,1562978202,82,-5.96,34.11,57.11,7.52
Olean,75,US,1562978203,88,42.08,-78.43,70,8.05
Alofi,90,NU,1562977736,100,-19.06,-169.92,69.8,14.99
Esmeraldas,0,BR,1562978203,67,-19.76,-44.31,62.6,2.24
Dalvik,48,SE,1562978204,100,57.79,14.13,60.01,2.24
Tilichiki,83,RU,1562977837,68,60.47,166.1,58.73,9.1
Chumikan,100,RU,1562977843,81,54.72,135.31,58.55,5.53
Mount Pleasant,1,US,1562978204,51,33.16,-94.97,89.6,5.12
Mugur-Aksy,76,RU,1562978205,91,50.38,90.44,39.11,4.94
Leh,9,IN,1562978205,55,34.16,77.58,38.39,1.32
Ishigaki,40,JP,1562977762,79,24.34,124.16,86,18.34
Shiraoi,75,JP,1562978205,100,42.56,141.33,68,16.11
Itoman,75,JP,1562977763,79,26.12,127.67,87.8,12.75
Mangrol,91,IN,1562978206,78,25.33,76.51,82.4,4.7
Wajir,70,KE,1562978206,70,1.75,40.07,75.11,15.68
Aizkraukle,1,LV,1562978206,95,56.6,25.25,44.01,2.57
Alvor,20,PT,1562978206,94,37.13,-8.59,68,4.7
Sasina,0,BA,1562978206,93,44.8,16.74,57.2,2.24
North Bend,75,US,1562977828,77,43.41,-124.22,66,12.75
Sainte-Rose,75,CA,1562978207,69,45.61,-73.79,75.2,10.29
Guayaramerin,62,BO,1562978207,68,-10.82,-65.36,77.45,1.63
Chara,75,GR,1562978207,93,39.42,22.43,68,2.51
Tiarei,75,PF,1562977843,78,-17.53,-149.33,80.6,14.99
Maceio,0,BR,1562978207,88,-9.67,-35.74,69.8,2.53
Praia da Vitoria,20,PT,1562978208,83,38.73,-27.07,71.01,4.18
Mogadishu,88,SO,1562978006,83,2.04,45.34,76.19,13.4
Namatanai,100,PG,1562977509,74,-3.66,152.44,78.89,1.28
Constitucion,75,MX,1562977830,40,23.99,-104.67,73.4,17.22
Amapa,20,HN,1562977829,58,15.09,-87.97,86,13.87
Muzaffarabad,70,PK,1562978208,91,34.37,73.47,67.91,3.51
Lavrentiya,100,RU,1562978209,30,65.58,-170.99,73.13,4.79
Turek,100,PL,1562978209,92,52.02,18.5,64.99,2.66
Kupino,0,RU,1562978209,82,54.36,77.31,60.53,7.49
Guozhen,100,CN,1562978210,94,29.3,113.14,71.69,6.89
Zhaotong,100,CN,1562978210,97,27.34,103.71,55.49,2.77
Kormilovka,0,RU,1562978210,77,55,74.1,62.6,4.47
Koutiala,95,ML,1562978210,45,12.39,-5.46,82.49,5.1
Sarangani,100,PH,1562977862,79,5.4,125.46,80.15,8.57
Kautokeino,100,NO,1562978211,79,69.01,23.04,43.61,3.53
Port Macquarie,40,AU,1562978211,34,-31.43,152.91,70,14.99
Nuuk,75,GL,1562978211,81,64.17,-51.74,44.6,16.11
Geraldton,75,CA,1562977571,73,49.72,-86.95,69.8,9.17
Nouadhibou,0,MR,1562977826,77,20.93,-17.03,69.8,11.41
Ballybofey,100,IE,1562978211,95,54.8,-7.78,53.51,3.49
Fortuna,40,US,1562977867,77,40.6,-124.16,69.01,14.99
Rome,0,IT,1562977753,83,41.89,12.48,73.99,4.7
Beckley,1,US,1562978197,61,37.78,-81.19,80.6,6.93
Phuthaditjhaba,0,ZA,1562978212,54,-28.53,28.82,39.83,3.69
Finschhafen,100,PG,1562978212,83,-6.6,147.85,67.55,2.01
Broome,90,GB,1562977558,100,52.47,1.45,62.01,4.7
Evans,1,US,1562978213,30,40.38,-104.69,88,19.46
Skibbereen,40,IE,1562978213,82,51.55,-9.27,55.4,9.17
Souillac,0,FR,1562977725,93,45.6,-0.6,66.99,5.82
Marsh Harbour,100,BS,1562977695,75,26.54,-77.06,83.75,11.03
Benalla,90,AU,1562978213,87,-36.55,145.99,46.99,6.93
Calabozo,69,VE,1562978207,84,8.92,-67.43,76.73,3.91
Troitsk,33,RU,1562978214,63,54.08,61.55,67.37,9.8
Parrita,75,CR,1562978214,88,9.52,-84.33,73,6.93
Fort Collins,1,US,1562978214,26,40.55,-105.07,88,17.22
Neepawa,40,CA,1562978214,53,50.23,-99.46,75.2,10.29
Nassau,75,AT,1562978214,93,46.81,15.34,59,2.24
Caravelas,46,BR,1562977534,76,-17.73,-39.27,70.97,5.82
Tomatlan,34,MX,1562978215,70,19.93,-105.25,84.83,8.14
Shubarkuduk,31,KZ,1562978215,23,49.15,56.49,82.13,8.55
Basqal,75,AZ,1562978215,60,40.75,48.39,75.2,10.29
Sao Gabriel da Cachoeira,93,BR,1562978215,94,-0.13,-67.09,74.39,0.67
Diapaga,50,BF,1562978216,76,12.07,1.79,78.35,6.46
Angoche,59,MZ,1562977833,85,-16.23,39.91,67.91,3.91
Beyla,100,GN,1562978216,97,8.69,-8.65,67.55,2.28
Concordia,100,AR,1562978216,90,-31.4,-58.02,63,8.99
Bilibino,47,RU,1562977735,32,68.06,166.44,77.63,12.12
Ardalstangen,0,NO,1562978217,97,61.24,7.7,55,4.09
Okato,60,NZ,1562978217,90,-39.19,173.88,48.99,1.99
La Asuncion,99,AR,1562978217,94,-26.05,-65.39,49.01,2.06
Vangaindrano,0,MG,1562978217,93,-23.35,47.6,57.29,2.01
Egvekinot,78,RU,1562977780,27,66.32,-179.17,80.33,12.97
Key Biscayne,90,US,1562977957,74,25.69,-80.16,84.99,8.05
Masallatah,0,LY,1562978218,88,32.62,14,73.31,2.33
Saint-Augustin,75,CA,1562977767,73,45.63,-73.98,75.2,3.36
Kalawit,100,PH,1562978218,89,7.91,122.53,76.55,3.71
Gillette,1,US,1562978218,34,44.29,-105.5,82,5.82
Vostok,91,RU,1562977718,71,46.45,135.83,65.21,3.74
Kaeo,2,NZ,1562977813,79,-35.1,173.78,63,5.99
Hami,1,CN,1562978219,33,42.84,93.51,77.09,7.2
Gobabis,0,NA,1562977761,31,-22.45,18.97,46.4,1.12
Upernavik,0,GL,1562977742,69,72.79,-56.15,47.57,6.42
Russell,1,US,1562977799,36,38.9,-98.86,93.99,14.99
Nioro,83,GM,1562978220,56,13.79,-15.05,80.33,10.92
Salinopolis,10,BR,1562978220,79,-0.61,-47.36,80.87,16.31
Bowen,95,AU,1562978220,37,-20.01,148.25,75,2.24
Nhamunda,8,BR,1562978221,88,-2.19,-56.71,74.57,2.3
Quatis,0,BR,1562978221,72,-22.41,-44.26,55.85,2.89
Kangaatsiaq,33,GL,1562978221,89,68.31,-53.46,42.89,6.4
Vammala,61,FI,1562978221,62,61.34,22.91,51.8,5.82
Lapua,0,FI,1562978221,100,62.97,23.01,44.01,2.59
Cruzeiro do Sul,0,BR,1562978222,88,-7.63,-72.67,77,1.54
Balabac,100,PH,1562978222,72,7.99,117.06,82.13,2.62
Kamaishi,40,JP,1562977779,69,39.28,141.86,75.2,9.17
Bud,95,NO,1562978222,81,62.91,6.91,55.4,9.17
Samfya,0,ZM,1562978222,52,-11.37,29.56,48.29,3.09
Baghdad,0,IQ,1562977746,29,33.3,44.38,87.8,11.41
Tuatapere,100,NZ,1562977860,70,-46.13,167.69,57,1.01
Malumfashi,93,NG,1562978223,67,11.79,7.62,76.19,7.02
Evensk,0,RU,1562978223,51,61.92,159.24,68.63,7.38
Dzaoudzi,0,YT,1562978223,83,-12.79,45.27,77,12.75
Mokrousovo,23,RU,1562978223,82,55.81,66.77,64.85,8.55
Redcar,77,GB,1562978224,93,54.62,-1.06,60.01,4.7
Bethanien,0,NA,1562978224,50,-26.5,17.16,49.19,3
Barra dos Coqueiros,75,BR,1562978224,88,-10.91,-37.04,75.2,6.93
Goderich,14,CA,1562977805,74,43.74,-81.71,69.01,5.99
Artsvanist,13,AM,1562978225,88,40.16,45.5,50.63,1.92
Jacareacanga,78,BR,1562978225,61,-6.22,-57.76,79.79,1.74
Thunder Bay,20,CA,1562977989,47,48.41,-89.26,80.6,13.87
Cedar City,75,US,1562978184,26,37.68,-113.06,84.99,12.75
Susanville,1,US,1562978225,16,40.42,-120.65,91.4,8.05
Isla Mujeres,75,MX,1562978076,66,21.23,-86.73,86,13.87
Serenje,0,ZM,1562978226,70,-13.23,30.22,46.85,3.8
Yuzhno-Kurilsk,100,RU,1562978226,94,44.03,145.86,55.13,6.8
Rincon,40,PA,1562978226,94,8.46,-82.28,75.2,4.7
Pankrushikha,31,RU,1562978226,79,53.83,80.35,58.73,10.71
Dunedin,71,NZ,1562977740,60,-45.87,170.5,52,7
Port Augusta,0,AU,1562978227,66,-32.49,137.76,51.8,14.99
Mutsu,75,JP,1562978227,88,41.29,141.2,73.4,16.11
Cockburn Town,40,TC,1562977748,70,21.46,-71.14,84.2,6.93
Sile,1,US,1562978227,15,35.56,-106.37,93.99,14.99
Ternate,20,PH,1562977859,74,14.29,120.72,86,4.7
Smolenskoye,16,RU,1562978228,78,52.31,85.08,61.43,9.46
Vero Beach,1,US,1562978228,51,27.64,-80.4,86,8.05
Maningrida,82,AU,1562977805,64,-12.05,134.23,75.65,12.26
Petropavlovsk-Kamchatskiy,90,RU,1562977801,100,53.05,158.65,51.8,8.95
Canmore,75,CA,1562978228,53,51.09,-115.35,73,5.82
Xining,18,CN,1562977794,66,36.62,101.77,51.89,1.43
Sheregesh,100,RU,1562978229,77,52.93,87.98,60.53,3.4
Leshukonskoye,9,RU,1562977745,91,64.9,45.76,41.99,1.97
Puerto Suarez,0,BO,1562978229,65,-18.96,-57.8,78.8,5.82
Okhotsk,29,RU,1562978229,63,59.36,143.24,67.19,4.03
Harmanli,40,BG,1562978229,82,41.93,25.9,64.4,6.93
Palu,75,ID,1562977555,74,-0.9,119.87,79.25,2.04
Mandera,82,ET,1562978230,66,3.94,41.86,77.09,14.43
Adolfo Lopez Mateos,45,MX,1562978230,56,26.8,-109.39,95,1.01
Krylovskaya,97,RU,1562978230,75,46.32,39.96,61.07,3.06
Ariquemes,31,BR,1562978230,68,-9.91,-63.03,76.37,1.63
Karratha,0,AU,1562977565,20,-20.74,116.85,68.99,21.77
Waipawa,0,NZ,1562977863,71,-39.94,176.59,57,13
Rwamagana,100,RW,1562978231,64,-1.95,30.43,68,3
Aswan,0,EG,1562978231,13,24.09,32.9,93.2,3.36
Asmar,0,AF,1562978231,45,35.03,71.36,64.85,6.6
Mariinsk,0,RU,1562978232,65,56.21,87.75,59.45,5.08
Port Hawkesbury,90,CA,1562977817,93,45.62,-61.36,60.01,9.17
Muhos,0,FI,1562978232,66,64.81,26,51.8,4.7
Igunga,45,TZ,1562978232,66,-4.28,33.88,61.25,3.11
Adre,63,TD,1562978233,70,13.47,22.2,74.57,7.96
Taltal,30,CL,1562977839,81,-25.41,-70.49,51.17,3.91
Maraa,100,BR,1562978233,86,-1.83,-65.37,75.65,3.11
Zaysan,26,KZ,1562978234,47,47.47,84.87,66.11,5.57
Biak,100,ID,1562977806,96,-0.91,122.88,63.59,5.86
Moroni,0,GR,1562978234,73,35.09,24.92,69.8,6.93
Olavarria,0,AR,1562978234,74,-36.89,-60.32,46.99,1.01
Koumac,99,NC,1562978234,75,-20.56,164.28,70.61,0.74
Moranbah,63,AU,1562978235,35,-22,148.04,67.91,5.41
Moerai,2,PF,1562978235,83,-22.43,-151.33,71.69,11.3
Ilhabela,0,BR,1562977487,67,-23.78,-45.36,70.61,6.96
Susuman,10,RU,1562978235,38,62.78,148.15,71.15,7.9
Mayo,90,CA,1562977798,63,63.59,-135.9,66.2,2.24
Cap Malheureux,40,MU,1562978235,64,-19.98,57.61,69.8,5.82
Inhambane,0,MZ,1562977791,93,-23.87,35.38,58.37,2.84
West Bay,40,CA,1562978236,64,49.34,-123.21,75.99,6.93
Beloha,0,MG,1562977806,84,-25.17,45.06,56.93,5.41
Aykhal,90,RU,1562978236,76,65.95,111.51,55.4,2.24
Abaza,100,RU,1562978236,97,52.65,90.1,55.49,0.83
Nelson Bay,75,AU,1562978237,47,-32.72,152.14,61,23.04
Camacha,40,PT,1562977868,88,33.08,-16.33,71.6,9.17
Kasongo-Lunda,15,CD,1562978237,76,-6.48,16.82,61.61,1.54
Dagda,6,LV,1562978237,79,56.09,27.54,44.69,2.73
Fukue,75,JP,1562977820,73,35.03,136.69,81,3.36
Carauari,11,BR,1562978237,92,-4.88,-66.9,72.77,2.19
Acari,17,BR,1562978238,68,-6.44,-36.64,75.83,20.09
Conde,12,BR,1562977793,98,-11.81,-37.61,67.91,2.46
Abu Samrah,0,SY,1562977851,79,35.3,37.18,70.25,16.78
Chapleau,75,CA,1562978238,77,47.85,-83.4,66.2,2.24
Fecamp,0,FR,1562978238,87,49.76,0.37,60.8,5.82
Kibala,20,TD,1562978238,88,9.11,18.35,78.8,3.91
Sobolevo,35,RU,1562977745,81,54.43,31.9,43.61,4.52
Kholodnyy,32,RU,1562978239,45,62.72,147.95,68.81,7.16
Nanchong,43,CN,1562978239,85,30.8,106.08,73.49,2.98
Kang,0,BW,1562978239,29,-23.67,22.79,52.07,6.76
Faya,5,SA,1562978239,49,18.39,42.45,77,1.01
Chanute,1,US,1562978240,54,37.68,-95.46,88,6.93
Starozhilovo,31,RU,1562978240,91,54.23,39.91,51.01,9.64
Amazar,40,RU,1562978240,49,53.86,120.88,75.47,3.27
Valverde del Camino,39,ES,1562978240,87,37.57,-6.75,71.01,4
Fairbanks,90,US,1562977543,93,64.84,-147.72,62.6,6.93
Talnakh,40,RU,1562977513,82,69.49,88.39,60.8,13.42
Diffa,72,NE,1562977752,48,13.32,12.61,85.55,8.75
Annapolis,40,US,1562978241,70,38.98,-76.49,87.01,3.36
Meulaboh,89,ID,1562978241,75,4.14,96.13,82.31,7.45
Mandleshwar,40,IN,1562978241,83,22.18,75.67,75.2,13.87
Tabou,97,CI,1562978241,93,4.42,-7.36,73.13,5.08
Ustye,65,RU,1562978242,69,58.76,27.79,54.95,9.31
Shushenskoye,0,RU,1562978242,72,53.33,91.95,64.4,4.47
Juneau,90,US,1562978242,77,58.3,-134.42,62.01,8.05
Rawson,0,AR,1562978242,55,-43.3,-65.11,45.41,10.16
Hirara,40,JP,1562977867,79,24.8,125.28,86,19.46
Farkhor,20,TJ,1562978243,78,37.49,69.4,80.6,2.71
Turukhansk,68,RU,1562977746,86,65.8,87.96,61.43,7.87
Makanya,65,TZ,1562978243,89,-4.36,37.82,63.23,12.33
Peniche,20,PT,1562977789,93,39.36,-9.38,68,4.7
Henties Bay,0,NA,1562978243,96,-22.12,14.28,54,5.01
Kefalos,0,GR,1562978244,71,36.75,26.96,73.85,18.68
Arman,7,RU,1562978244,44,59.7,150.17,78.35,4.38
Macas,40,EC,1562978244,100,-2.3,-78.12,68,3.36
Karachi,40,PK,1562978244,70,24.87,67.03,84.2,11.41
Hanko,54,FI,1562978244,85,59.83,22.95,55.99,7.83
Bonavista,2,CA,1562977769,78,48.65,-53.11,50.45,7.56
Verkhnyaya Inta,2,RU,1562978245,66,65.99,60.32,54.23,9.35
Letka,20,BA,1562978245,72,43.74,17.27,64.4,4.7
Avera,40,US,1562977787,70,33.19,-82.53,91.99,4.54
Nueve de Julio,1,AR,1562978245,58,-31.67,-68.39,51.35,1.23
Elizabeth City,1,US,1562978246,70,36.3,-76.22,88,8.05
Tarko-Sale,90,RU,1562978246,69,64.92,77.78,63,8.61
General Roca,0,AR,1562978246,75,-39.03,-67.58,44.6,2.24
Saurimo,54,AO,1562978246,32,-9.66,20.4,61.79,5.95
Erenhot,0,CN,1562978247,36,43.65,111.97,75.29,11.03
Milkovo,20,BG,1562978247,77,41.53,24.68,72,4.7
Kingaroy,82,AU,1562978247,42,-26.54,151.84,66,13.87
Raudeberg,0,NO,1562977796,76,61.99,5.14,57.2,19.46
Zacualpan,90,MX,1562978247,100,21.25,-105.17,81,6.98
Goksun,40,TR,1562978247,64,38.02,36.5,75.2,13.87
Shugurovo,100,RU,1562978248,97,54.51,52.13,62.15,12.1
Makaha,75,US,1562978248,58,21.47,-158.22,88,10.29
Garowe,96,SO,1562978248,49,8.41,48.48,80.87,22.53
Sambava,1,MG,1562978248,89,-14.27,50.17,61.97,3.67
Mount Isa,84,AU,1562977769,45,-20.73,139.49,62.6,19.46
Magole,20,TZ,1562978248,88,-6.37,37.37,64.4,1.5
Lac-au-Saumon,90,CA,1562978249,93,48.42,-67.35,64.4,4.7
Haradok,0,BY,1562978249,93,55.46,29.99,44.6,0.65
Narrabri,40,AU,1562978249,58,-30.33,149.78,57,5.82
Kolondieba,81,ML,1562978249,77,11.09,-6.89,77.09,6.08
Djambala,34,CG,1562978249,67,-2.55,14.76,71.33,4.09
Tay Ninh,52,VN,1562978250,86,11.3,106.1,79.43,5.77
Taoudenni,0,ML,1562977725,14,22.68,-3.98,96.53,10.65
Marshall,1,US,1562978035,51,39.12,-93.2,87.01,3.36
Shingu,75,JP,1562977778,73,33.72,135.99,77,2.24
Chipinge,0,ZW,1562978250,53,-20.19,32.62,56.03,4.94
Canton,1,US,1562977742,64,40.8,-81.38,78.01,5.17
Mossendjo,19,CG,1562978250,93,-2.95,12.72,65.21,1.14
Dhankuta,100,NP,1562978251,98,26.98,87.34,66.29,2.48
Yenagoa,100,NG,1562977861,94,4.92,6.26,73.49,2.64
Virginia Beach,75,US,1562978041,83,36.85,-75.98,89.01,8.05
Dabat,100,ET,1562978251,92,12.98,37.77,65.21,0.16
Kanchanaburi,100,TH,1562978251,85,14.03,99.53,77.45,3.94
Raychikhinsk,49,RU,1562978252,76,49.8,129.4,73.13,5.3
Ostrzeszow,92,PL,1562978252,8,51.43,17.93,60.01,2.17
Villavicencio,40,CO,1562978252,83,4.13,-73.62,77,3.36
Roald,99,NO,1562977728,81,62.58,6.12,55.4,9.17
Jamame,93,SO,1562978253,84,0.07,42.75,75.29,7.45
Mahemdavad,25,IN,1562978253,68,22.82,72.75,84.11,11.05
West Plains,20,US,1562978209,58,36.73,-91.85,84.99,3.36
Maragogi,0,BR,1562977830,94,-9.01,-35.22,68.45,2.13
Gotsu,75,JP,1562978253,83,35.01,132.22,73.4,3.36
Murupara,76,NZ,1562978254,76,-38.46,176.71,61,1.99
Ossora,89,RU,1562977871,76,59.24,163.07,55.67,6.08
Ibra,0,OM,1562978254,66,22.69,58.55,74.75,2.24
Ust-Barguzin,98,RU,1562978254,97,53.41,109.03,51.35,5.26
Umarkot,93,PK,1562978254,63,25.37,69.74,85.55,22.55
Marzuq,83,YE,1562977815,38,14.4,46.47,78.71,3.78
Wairoa,41,NZ,1562978255,43,-39.04,177.43,66,8.99
Winneba,90,GH,1562978255,94,5.35,-0.62,77,10.29
Mala Vyska,24,UA,1562978255,88,48.64,31.63,52.79,5.82
Gorom-Gorom,80,BF,1562978255,54,14.45,-0.24,84.29,9.24
Naron,0,ES,1562978256,72,43.52,-8.15,69.01,2.24
Waitati,71,NZ,1562978256,58,-45.75,170.57,53.01,4
Zhoucheng,90,CN,1562978256,100,31.35,119.33,71.6,4.47
Ammon,40,US,1562977977,22,43.47,-111.97,91.4,16.11
Anloga,20,GH,1562977850,94,5.79,0.9,75.2,10.29
Villa Guerrero,81,MX,1562978257,70,21.98,-103.59,73.67,4.79
Mareeba,40,AU,1562977728,64,-16.99,145.42,75.99,16.11
Harper,1,US,1562977858,46,30.3,-99.24,90,5.86
Cartagena,0,ES,1562978257,61,37.63,-1,82,4.7
Crestview,75,US,1562978257,88,30.76,-86.57,80.6,6.93
Pokhara,90,NP,1562978258,93,28.21,83.99,55.67,0.38
Santa Ana,1,MX,1562978258,26,30.54,-111.12,99,5.99
Granada,40,NI,1562978199,70,11.93,-85.96,87.8,13.87
Benguela,78,AO,1562978258,84,-12.58,13.4,68.81,9.46
